{
  "records": [
  {
      "GABI_Acc_Number": "GABI_00862248",
      "genus_name_valid": "Azteca",
      "species_name_valid": "schumannii dubia",
      "subspecies_name_valid": null,
      "dec_lat":  38.478518,
      "dec_long": -122.852768,
      "country": "America",
      "bentity_name_2": "Amazonas_Brazil",
      "bentity_name_3": "Amazonas_Brazil"
  }, {
      "GABI_Acc_Number": "GABI_00862249",
      "genus_name_valid": "Azteca",
      "species_name_valid": "angusticeps",
      "subspecies_name_valid": null,
      "dec_lat": -14.232402,
      "dec_long": -48.930945,
      "country": "Brazil",
      "bentity_name_2": "Amazonas_Brazil",
      "bentity_name_3": "Amazonas_Brazil"
  }, {
      "GABI_Acc_Number": "GABI_00862250",
      "genus_name_valid": "Azteca",
      "species_name_valid": "trigona mathildae",
      "subspecies_name_valid": null,
      "dec_lat":  -7.900368,
      "dec_long": -76.642808,
      "country": "Peru",
      "bentity_name_2": "Amazonas_Brazil",
      "bentity_name_3": "Amazonas_Brazil"
  }, {
      "GABI_Acc_Number": "GABI_00862251",
      "genus_name_valid": "Dorymyrmex",
      "species_name_valid": "pyramicus",
      "subspecies_name_valid": null,
      "dec_lat":  -4.211714,
      "dec_long": -65.125266,
      "country": "Brazil",
      "bentity_name_2": "Amazonas_Brazil",
      "bentity_name_3": "Amazonas_Brazil"
  }, {
      "GABI_Acc_Number": "GABI_00862252",
      "genus_name_valid": "Myrmelachista",
      "species_name_valid": "bambusarum",
      "subspecies_name_valid": null,
      "dec_lat":  15.814138,
      "dec_long": -90.101026,
      "country": "Guatemala",
      "bentity_name_2": "Amazonas_Brazil",
      "bentity_name_3": "Amazonas_Brazil"
  }, {
      "GABI_Acc_Number": "GABI_00862253",
      "genus_name_valid": "Tetraponera",
      "species_name_valid": "rufonigra",
      "subspecies_name_valid": null,
      "dec_lat": 25.45,
      "dec_long": 81.75,
      "country": "India",
      "bentity_name_2": "Uttar Pradesh",
      "bentity_name_3": "North India"
  }, {
      "GABI_Acc_Number": "GABI_00862254",
      "genus_name_valid": "Nylanderia",
      "species_name_valid": "fulva",
      "subspecies_name_valid": null,
      "dec_lat":  22.209500,
      "dec_long": -104.813214,
      "country": "Mexico",
      "bentity_name_2": "Amazonas_Brazil",
      "bentity_name_3": "Amazonas_Brazil"
  }, {
      "GABI_Acc_Number": "GABI_00862255",
      "genus_name_valid": "Acanthostichus",
      "species_name_valid": "brevicornis",
      "subspecies_name_valid": null,
      "dec_lat": -12.505208,
      "dec_long": 135.877153,
      "country": "Australia",
      "bentity_name_2": "Paraiba",
      "bentity_name_3": "Paraiba"
  }, {
      "GABI_Acc_Number": "GABI_00862256",
      "genus_name_valid": "Gnamptogenys",
      "species_name_valid": "annulata",
      "subspecies_name_valid": null,
      "dec_lat": -23.517851,
      "dec_long": 114.834907,
      "country": "Australia",
      "bentity_name_2": "Rondonia",
      "bentity_name_3": "Rondonia"
  }, {
      "GABI_Acc_Number": "GABI_00862257",
      "genus_name_valid": "Neoponera",
      "species_name_valid": "commutata",
      "subspecies_name_valid": null,
      "dec_lat": 23.903550,
      "dec_long": 120.409834,
      "country": "Taiwan",
      "bentity_name_2": "Rondonia",
      "bentity_name_3": "Rondonia"
  }, {
      "GABI_Acc_Number": "GABI_00862258",
      "genus_name_valid": "Neoponera",
      "species_name_valid": "apicalis",
      "subspecies_name_valid": null,
      "dec_lat": 26.357151,
      "dec_long": 127.813789,
      "country": "Japan",
      "bentity_name_2": "Rondonia",
      "bentity_name_3": "Rondonia"
  }, {
      "GABI_Acc_Number": "GABI_00862259",
      "genus_name_valid": "Neoponera",
      "species_name_valid": "apicalis",
      "subspecies_name_valid": null,
      "dec_lat": 35.735189,
      "dec_long": 139.976251,
      "country": "Japan",
      "bentity_name_2": "Rondonia",
      "bentity_name_3": "Rondonia"
  }, {
      "GABI_Acc_Number": "GABI_00862260",
      "genus_name_valid": "Neoponera",
      "species_name_valid": "unidentata",
      "subspecies_name_valid": null,
      "dec_lat":  47.777514,
      "dec_long":  32.635253,
      "country": "Ukraine",
      "bentity_name_2": "Rondonia",
      "bentity_name_3": "Rondonia"
  }, {
      "GABI_Acc_Number": "GABI_00862261",
      "genus_name_valid": "Neoponera",
      "species_name_valid": "villosa",
      "subspecies_name_valid": null,
      "dec_lat":  44.483665,
      "dec_long": 5.305789Â°,
      "country": "France",
      "bentity_name_2": "Rondonia",
      "bentity_name_3": "Rondonia"
  }, {
      "GABI_Acc_Number": "GABI_00862262",
      "genus_name_valid": "Neoponera",
      "species_name_valid": "moesta",
      "subspecies_name_valid": null,
      "dec_lat":  42.996899,
      "dec_long": -89.364138,
      "country": "America",
      "bentity_name_2": "Rondonia",
      "bentity_name_3": "Rondonia"
  }, {
      "GABI_Acc_Number": "GABI_00862263",
      "genus_name_valid": "Pachycondyla",
      "species_name_valid": "harpax",
      "subspecies_name_valid": null,
      "dec_lat":  27.840155,
      "dec_long": -81.229957,
      "country": "America",
      "bentity_name_2": "Rondonia",
      "bentity_name_3": "Rondonia"
  }
 ]
}